[
  {
    "id":1,
    "lat":48.8387038,
    "lng":2.2576327,
    "name":"Porte de Saint-Cloud",
    "address":"139 rue Michel-Ange",
    "available":false,
    "slug":"porte-saint-cloud",
    "updated_at":"2016-07-05T16:26:55.176+02:00",
    "has_camera":false,
    "has_watchman":true,
    "zip_code":"75016",
    "district":"16",
    "city":"Paris",
    "main_picture":"https://yespark.imgix.net/Parking-porte-saint-cloud-327.JPG?ixlib=rails-2.1.0\u0026auto=enhance\u0026fit=crop\u0026w=450\u0026h=300",
    "price_month":15900
  },
  {
    "id":2,
    "lat":48.8721103,
    "lng":2.3945036,
    "name":"Olivier Métra",
    "address":"15 rue Olivier Métra",
    "available":false,
    "slug":"olivier-metra",
    "updated_at":"2016-07-25T04:00:50.579+02:00",
    "has_camera":false,
    "has_watchman":true,
    "zip_code":"75020",
    "district":"20",
    "city":"Paris",
    "main_picture":"https://yespark.imgix.net/Parking-olivier-metra-1901.JPG?ixlib=rails-2.1.0\u0026auto=enhance\u0026fit=crop\u0026w=450\u0026h=300",
    "price_month":7200
  },
  {
    "id":3,
    "lat":48.8387323,
    "lng":2.3090973,
    "name":"Volontaires - Dutot - Paris",
    "address":"51 rue Dutot",
    "available":true,
    "slug":"volontaires-dutot-paris",
    "updated_at":"2016-07-25T04:00:50.626+02:00",
    "has_camera":false,
    "has_watchman":false,
    "zip_code":"75015",
    "district":"15",
    "city":"Paris",
    "main_picture":"https://yespark.imgix.net/Parking-volontaires-dutot-paris-2106.jpg?ixlib=rails-2.1.0\u0026auto=enhance\u0026fit=crop\u0026w=450\u0026h=300",
    "price_month":10100
  },
  {
    "id":4,
    "lat":48.9493324,
    "lng":2.4389617,
    "name":"Aéroport du Bourget - Blanc-Mesnil",
    "address":"158 avenue du 8 mai 1945",
    "available":true,
    "slug":"aeroport-bourget-blanc-mesnil",
    "updated_at":"2016-07-25T16:16:00.665+02:00",
    "has_camera":true,
    "has_watchman":true,
    "zip_code":"93150",
    "district":"0",
    "city":"Le Blanc-Mesnil",
    "main_picture":"https://yespark.imgix.net/Parking-aeroport-bourget-blanc-mesnil-865.jpg?ixlib=rails-2.1.0\u0026auto=enhance\u0026fit=crop\u0026w=450\u0026h=300",
    "price_month":5000
  },
  {
    "id":5,
    "lat":48.9144332,
    "lng":2.334988,
    "name":"Mairie de Saint-Ouen ",
    "address":"14 rue Amilcar Cipriani",
    "available":true,
    "slug":"mairie-saint-ouen",
    "updated_at":"2016-07-25T04:00:50.721+02:00",
    "has_camera":true,
    "has_watchman":true,
    "zip_code":"93400",
    "district":"0",
    "city":"Saint-Ouen",
    "main_picture":"https://yespark.imgix.net/Parking-mairie-saint-ouen-899.JPG?ixlib=rails-2.1.0\u0026auto=enhance\u0026fit=crop\u0026w=450\u0026h=300",
    "price_month":5900
  },
  {
    "id":6,
    "lat":48.773784,
    "lng":2.3734884,
    "name":"Moulin Vert",
    "address":"12 rue Pauline Lacroix",
    "available":true,
    "slug":"moulin-vert",
    "updated_at":"2016-07-25T05:44:01.557+02:00",
    "has_camera":false,
    "has_watchman":true,
    "zip_code":"94400",
    "district":"0",
    "city":"Vitry-sur-Seine",
    "main_picture":"https://yespark.imgix.net/Parking-moulin-vert-1426.JPG?ixlib=rails-2.1.0\u0026auto=enhance\u0026fit=crop\u0026w=450\u0026h=300",
    "price_month":47.0
  },
  {
    "id":7,
    "lat":48.8932619,
    "lng":2.2530754,
    "name":"Mairie de Courbevoie",
    "address":"3 rue Carle Hébert",
    "available":true,
    "slug":"mairie-courbevoie",
    "updated_at":"2016-07-25T04:00:50.674+02:00",
    "has_camera":false,
    "has_watchman":true,
    "zip_code":"92400",
    "district":"0",
    "city":"Courbevoie",
    "main_picture":"https://yespark.imgix.net/Parking-mairie-courbevoie-1189.png?ixlib=rails-2.1.0\u0026auto=enhance\u0026fit=crop\u0026w=450\u0026h=300",
    "price_month":75.0
  }
]